[{"latitude": 37.4219998, "radius": 6, "name": "download google web history\npachebel's canon\nhave i got news for you season 47\nlet it go latin american spanish\nlet it go castilian\nhignfy s47e1", "longitude": -122.0839596, "fillKey": "bcolor"}, {"latitude": 30.1887809, "radius": 1, "name": "allintitle:\u201dNetwork Camera NetworkCamera\u201d", "longitude": 120.1924905, "fillKey": "bcolor"}, {"latitude": 40.097136, "radius": 1, "name": "wolfram solve recurrence relation", "longitude": -88.245695, "fillKey": "bcolor"}, {"latitude": 35.9152434, "radius": 1, "name": "wienerschnitzel recipe", "longitude": -84.1086291, "fillKey": "bcolor"}, {"latitude": 41.810851, "radius": 1, "name": "soda drinker pro", "longitude": -71.287976, "fillKey": "bcolor"}, {"latitude": 37.4833782, "radius": 1, "name": "meat sciences lab", "longitude": -122.1495525, "fillKey": "bcolor"}, {"latitude": 40.741523, "radius": 1, "name": "good pork marinade", "longitude": -73.999883, "fillKey": "bcolor"}, {"latitude": 17.497713, "radius": 1, "name": "project free tv", "longitude": -88.18665399999999, "fillKey": "bcolor"}, {"latitude": 40.0695675, "radius": 1, "name": "download google web history", "longitude": -75.4585772, "fillKey": "bcolor"}, {"latitude": 32.807263, "radius": 2, "name": "android netrunner\ngame of thrones card game", "longitude": -96.721802, "fillKey": "bcolor"}, {"latitude": 45.483611, "radius": 1, "name": "character is who you ar in the dark", "longitude": -91.7498773, "fillKey": "bcolor"}, {"latitude": 37.7767592, "radius": 2, "name": "Ashly Burch\nMary Schenk", "longitude": -122.4168323, "fillKey": "bcolor"}, {"latitude": 37.4172771, "radius": 2, "name": "sona no japanese\ncharacter is who you ar in the dark", "longitude": -122.0251679, "fillKey": "bcolor"}, {"latitude": 33.859851, "radius": 1, "name": "chuckeye steak", "longitude": -118.074045, "fillKey": "bcolor"}, {"latitude": 51.4436894, "radius": 1, "name": "download google web history", "longitude": -3.1673702, "fillKey": "bcolor"}, {"latitude": 40.7067798, "radius": 8, "name": "script get coordinates from address\nfeed:https://www.google.com/history/lookup?month=1&day=9&yr=2011&output=rss\nstack overflow\ndownload google web history\nwhere does chrome store history\ncan an extension tell if you're in incognito mode?", "longitude": -74.0125956, "fillKey": "bcolor"}, {"latitude": 40.157512, "radius": 1, "name": "revengance", "longitude": -75.047232, "fillKey": "bcolor"}, {"latitude": 49.792296, "radius": 1, "name": "libre soy lyrics", "longitude": 30.120359, "fillKey": "bcolor"}, {"latitude": 38.567645, "radius": 1, "name": "leeland yee", "longitude": -121.480837, "fillKey": "bcolor"}, {"latitude": 38.479839, "radius": 1, "name": "chuckeye steak", "longitude": -90.363224, "fillKey": "bcolor"}, {"latitude": 8.985297599999999, "radius": 3, "name": "sueltalo lyrics\nmtgspoiler\nkeranos spoiler", "longitude": -79.52341489999999, "fillKey": "bcolor"}, {"latitude": 33.604781, "radius": 1, "name": "Ashley Davis", "longitude": -112.105337, "fillKey": "bcolor"}, {"latitude": 47.6062095, "radius": 1, "name": "michio kaku the principle", "longitude": -122.3320708, "fillKey": "bcolor"}, {"latitude": 44.9817384, "radius": 1, "name": "let it go catalan lyrics", "longitude": -93.2737094, "fillKey": "bcolor"}, {"latitude": 42.377364, "radius": 1, "name": "rebecca guay", "longitude": -72.505662, "fillKey": "bcolor"}, {"latitude": 44.0445583, "radius": 1, "name": "Literally Unbelieveable", "longitude": -123.0991339, "fillKey": "bcolor"}, {"latitude": 33.4941704, "radius": 1, "name": "Gender Identity Watch", "longitude": -111.9260519, "fillKey": "bcolor"}, {"latitude": 35.406935, "radius": 1, "name": "two chocolate chip cookies", "longitude": -119.148078, "fillKey": "bcolor"}, {"latitude": 45.1700795, "radius": 1, "name": "hark a vagrant", "longitude": -75.57455329999999, "fillKey": "bcolor"}, {"latitude": 41.018139, "radius": 2, "name": "Kingdom of Loathing\nlet it go catalan lyrics", "longitude": -75.9949252, "fillKey": "bcolor"}, {"latitude": 43.6390597, "radius": 2, "name": "french twist\nlibre soy letra", "longitude": -79.4259974, "fillKey": "bcolor"}, {"latitude": 45.01498309999999, "radius": 1, "name": "android netrunner", "longitude": -93.1842862, "fillKey": "bcolor"}, {"latitude": 37.786498, "radius": 1, "name": "let it go lyrics", "longitude": -122.397028, "fillKey": "bcolor"}, {"latitude": 36.815951, "radius": 1, "name": "winterbells", "longitude": -119.662862, "fillKey": "bcolor"}, {"latitude": 33.757916, "radius": 1, "name": "blood moon", "longitude": -84.39477579999999, "fillKey": "bcolor"}, {"latitude": 38.906992, "radius": 1, "name": "polygon", "longitude": -77.04002400000002, "fillKey": "bcolor"}, {"latitude": 51.518409, "radius": 1, "name": "have i got news for you season 47", "longitude": -0.143691, "fillKey": "bcolor"}, {"latitude": 37.7869304, "radius": 20, "name": "ho fun\nleland yee\nMalteesers\n301 BC\nsysogy\nAllison Scagliotti\nrebecca guay\nAshly Burch\nclarice\nvw beetle\nCyber Physical Systems\nCiv Rev\ncommenter\nTwin Peaks\nmagrheb\nhignfy\ntang yuan\ngame of thrones card game\nFoucalt's pendulum\nVanuatu", "longitude": -122.3996142, "fillKey": "bcolor"}, {"latitude": 51.449112, "radius": 1, "name": "let it go castilian lyrics", "longitude": 5.4759741, "fillKey": "bcolor"}, {"latitude": 40.7531297, "radius": 1, "name": "unsecured internet camera", "longitude": -73.985135, "fillKey": "bcolor"}]